[
  {
    "iata":"AUH",
    "airport":"Abu Dhabi",
    "state":"Abu Dhabi",
    "country":"United Arab Emirates",
    "latitude":24.466667,
    "longitude":54.36666700000001,
    "FIELD7":""
  },
  {
    "iata":"IXA",
    "airport":"Agartala",
    "state":"Tripura",
    "country":"India",
    "latitude":23.831457,
    "longitude":91.28677770000002,
    "FIELD7":""
  },
  {
    "iata":"QGG",
    "airport":"Ahmedabad",
    "state":"Gujarat",
    "country":"India",
    "latitude":23.022505,
    "longitude":72.57136209999999,
    "FIELD7":""
  },
  {
    "iata":"AJL",
    "airport":"Aizawl",
    "state":"Mizoram",
    "country":"India",
    "latitude":23.727107,
    "longitude":92.7176389,
    "FIELD7":""
  },
  {
    "iata":"ATQ",
    "airport":"Amritsar",
    "state":"Punjab",
    "country":"India",
    "latitude":31.6339793,
    "longitude":74.87226420000002,
    "FIELD7":""
  },
  {
    "iata":"AMS",
    "airport":"Amsterdam",
    "state":"The Netherlands",
    "country":"",
    "latitude":52.3702157,
    "longitude":4.895167899999933,
    "FIELD7":""
  },
  {
    "iata":"IXU",
    "airport":"Aurangabad",
    "state":"Maharashtra",
    "country":"India",
    "latitude":19.8761653,
    "longitude":75.3433139,
    "FIELD7":""
  },
  {
    "iata":"AUS",
    "airport":"Austin",
    "state":"TX",
    "country":"USA",
    "latitude":30.267153,
    "longitude":-97.74306079999997,
    "FIELD7":""
  },
  {
    "iata":"IXB",
    "airport":"Bagdogra",
    "state":"West Bengal",
    "country":"India",
    "latitude":26.6995298,
    "longitude":88.31889150000006,
    "FIELD7":""
  },
  {
    "iata":"BAH",
    "airport":"Bahrain",
    "state":"",
    "country":"",
    "latitude":26.0667,
    "longitude":50.55770000000007,
    "FIELD7":""
  },
  {
    "iata":"BKK",
    "airport":"Bangkok",
    "state":"",
    "country":"Thailand",
    "latitude":13.7278956,
    "longitude":100.52412349999997,
    "FIELD7":""
  },
  {
    "iata":"BCN",
    "airport":"Barcelona",
    "state":"Barcelona",
    "country":"Spain",
    "latitude":41.3850639,
    "longitude":2.1734035,
    "FIELD7":""
  },
  {
    "iata":"BLR",
    "airport":"Bengaluru",
    "state":"Karnataka",
    "country":"India",
    "latitude":12.9715987,
    "longitude":77.5945627,
    "FIELD7":""
  },
  {
    "iata":"TXL",
    "airport":"Berlin Tegel",
    "state":"Berlin",
    "country":"Germany",
    "latitude":52.583333,
    "longitude":13.283333,
    "FIELD7":""
  },
  {
    "iata":"BHU",
    "airport":"Bhavnagar",
    "state":"Gujarat",
    "country":"India",
    "latitude":21.7644725,
    "longitude":72.1519304,
    "FIELD7":""
  },
  {
    "iata":"BHO",
    "airport":"Bhopal",
    "state":"Madhya Pradesh",
    "country":"India",
    "latitude":23.2599333,
    "longitude":77.412615,
    "FIELD7":""
  },
  {
    "iata":"BHJ",
    "airport":"Bhuj",
    "state":"Gujarat",
    "country":"India",
    "latitude":23.2419997,
    "longitude":69.6669324,
    "FIELD7":""
  },
  {
    "iata":"BHM",
    "airport":"Birmingham",
    "state":"AL",
    "country":"USA",
    "latitude":33.5206608,
    "longitude":-86.80249,
    "FIELD7":""
  },
  {
    "iata":"BLQ",
    "airport":"Bologna",
    "state":"",
    "country":"Italy",
    "latitude":44.494887,
    "longitude":11.3426163,
    "FIELD7":""
  },
  {
    "iata":"BNE",
    "airport":"Brisbane",
    "state":"",
    "country":"Australia",
    "latitude":-27.4710107,
    "longitude":153.0234489,
    "FIELD7":""
  },
  {
    "iata":"BRS",
    "airport":"Bristol",
    "state":"City of Bristol",
    "country":"UK",
    "latitude":51.454513,
    "longitude":-2.58791,
    "FIELD7":""
  },
  {
    "iata":"BRU",
    "airport":"Brussels",
    "state":"",
    "country":"Belgium",
    "latitude":50.8503396,
    "longitude":4.3517103,
    "FIELD7":""
  },
  {
    "iata":"YYC",
    "airport":"Calgary",
    "state":"AB",
    "country":"Canada",
    "latitude":51.0453246,
    "longitude":-114.0581012,
    "FIELD7":""
  },
  {
    "iata":"CPT",
    "airport":"Cape town",
    "state":"",
    "country":"South Africa",
    "latitude":-33.9248685,
    "longitude":18.4240553,
    "FIELD7":""
  },
  {
    "iata":"IXC",
    "airport":"Chandigarh",
    "state":"Chandigarh",
    "country":"India",
    "latitude":30.7333148,
    "longitude":76.7794179,
    "FIELD7":""
  },
  {
    "iata":"CHS",
    "airport":"Charleston",
    "state":"SC",
    "country":"USA",
    "latitude":32.7764749,
    "longitude":-79.9310512,
    "FIELD7":""
  },
  {
    "iata":"MAA",
    "airport":"Chennai",
    "state":"Tamil Nadu",
    "country":"India",
    "latitude":13.0597049,
    "longitude":80.2252278,
    "FIELD7":""
  },
  {
    "iata":"ORD",
    "airport":"Chicago",
    "state":"IL",
    "country":"USA",
    "latitude":41.8781136,
    "longitude":-87.6297982,
    "FIELD7":""
  },
  {
    "iata":"CVG",
    "airport":"Cincinnati",
    "state":"OH",
    "country":"USA",
    "latitude":39.1031182,
    "longitude":-84.5120196,
    "FIELD7":""
  },
  {
    "iata":"CLE",
    "airport":"Cleveland",
    "state":"OH",
    "country":"USA",
    "latitude":41.49932,
    "longitude":-81.6943605,
    "FIELD7":""
  },
  {
    "iata":"CJB",
    "airport":"Coimbatore",
    "state":"Tamil Nadu",
    "country":"India",
    "latitude":11.0168445,
    "longitude":76.9558321,
    "FIELD7":""
  },
  {
    "iata":"CMB",
    "airport":"Colombo",
    "state":"",
    "country":"Sri Lanka",
    "latitude":6.9270786,
    "longitude":79.861243,
    "FIELD7":""
  },
  {
    "iata":"CMH",
    "airport":"Columbus",
    "state":"OH",
    "country":"USA",
    "latitude":39.9611755,
    "longitude":-82.9987942,
    "FIELD7":""
  },
  {
    "iata":"CPH",
    "airport":"Copenhagen",
    "state":"",
    "country":"Denmark",
    "latitude":55.4,
    "longitude":12.34,
    "FIELD7":""
  },
  {
    "iata":"DMM",
    "airport":"Dammam Sabtco Bus Station",
    "state":"Dammam",
    "country":"Saudi Arabia",
    "latitude":26.4515299,
    "longitude":50.1070569,
    "FIELD7":""
  },
  {
    "iata":"DMS",
    "airport":"Dammam",
    "state":"Dammam",
    "country":"Saudi Arabia",
    "latitude":26.3926665,
    "longitude":49.9777136,
    "FIELD7":""
  },
  {
    "iata":"DAY",
    "airport":"Dayton",
    "state":"OH",
    "country":"USA",
    "latitude":39.7589478,
    "longitude":-84.1916069,
    "FIELD7":""
  },
  {
    "iata":"DED",
    "airport":"Dehradun",
    "state":"Uttarakhand",
    "country":"India",
    "latitude":30.3164945,
    "longitude":78.0321918,
    "FIELD7":""
  },
  {
    "iata":"DEL",
    "airport":"Delhi",
    "state":"Delhi",
    "country":"India",
    "latitude":28.38,
    "longitude":77.13,
    "FIELD7":""
  },
  {
    "iata":"DAC",
    "airport":"Dhaka",
    "state":"",
    "country":"Bangladesh",
    "latitude":23.810332,
    "longitude":90.4125181,
    "FIELD7":""
  },
  {
    "iata":"DIB",
    "airport":"Dibrugarh",
    "state":"Assam",
    "country":"India",
    "latitude":27.4728327,
    "longitude":94.9119621,
    "FIELD7":""
  },
  {
    "iata":"DIU",
    "airport":"Diu",
    "state":"",
    "country":"India",
    "latitude":20.71,
    "longitude":70.98,
    "FIELD7":""
  },
  {
    "iata":"DIU",
    "airport":"Doha",
    "state":"",
    "country":"Qatar",
    "latitude":25.286667,
    "longitude":51.533333,
    "FIELD7":""
  },
  {
    "iata":"DXB",
    "airport":"Dubai",
    "state":"",
    "country":"United Arab Emirates",
    "latitude":25.0476643,
    "longitude":55.1817407,
    "FIELD7":""
  },
  {
    "iata":"DUB",
    "airport":"Dublin",
    "state":"",
    "country":"Ireland",
    "latitude":53.3498053,
    "longitude":-6.2603097,
    "FIELD7":""
  },
  {
    "iata":"DUR",
    "airport":"Durban",
    "state":"",
    "country":"South Africa",
    "latitude":-29.8586804,
    "longitude":31.0218404,
    "FIELD7":""
  },
  {
    "iata":"DUS",
    "airport":"Dusseldorf",
    "state":"",
    "country":"Germany",
    "latitude":51.2277411,
    "longitude":6.7734556,
    "FIELD7":""
  },
  {
    "iata":"YEG",
    "airport":"Edmonton",
    "state":"AB",
    "country":"Canada",
    "latitude":53.544389,
    "longitude":-113.4909267,
    "FIELD7":""
  },
  {
    "iata":"FLR",
    "airport":"Florence",
    "state":"",
    "country":"Italy",
    "latitude":43.7710332,
    "longitude":11.2480006,
    "FIELD7":""
  },
  {
    "iata":"FRA",
    "airport":"Frankfurt",
    "state":"",
    "country":"Germany",
    "latitude":50.1109221,
    "longitude":8.6821267,
    "FIELD7":""
  },
  {
    "iata":"GVA",
    "airport":"Geneva",
    "state":"",
    "country":"Switzerland",
    "latitude":46.1983922,
    "longitude":6.1422961,
    "FIELD7":""
  },
  {
    "iata":"GOI",
    "airport":"Goa",
    "state":"",
    "country":"India",
    "latitude":15.2993265,
    "longitude":74.123996,
    "FIELD7":""
  },
  {
    "iata":"GOP",
    "airport":"Gorakhpur",
    "state":"Uttar Pradesh",
    "country":"India",
    "latitude":26.7605545,
    "longitude":83.3731675,
    "FIELD7":""
  },
  {
    "iata":"GSO",
    "airport":"Greensboro/High Point",
    "state":"NC",
    "country":"USA",
    "latitude":36.4,
    "longitude":79.47,
    "FIELD7":""
  },
  {
    "iata":"GAU",
    "airport":"Guwahati",
    "state":"Assam",
    "country":"India",
    "latitude":26.1445169,
    "longitude":91.7362365,
    "FIELD7":""
  },
  {
    "iata":"HAM",
    "airport":"Hamburg",
    "state":"",
    "country":"Germany",
    "latitude":53.5510846,
    "longitude":9.99368179999999,
    "FIELD7":""
  },
  {
    "iata":"HAN",
    "airport":"Hanoi",
    "state":"Hoàn Kiếm District Hanoi",
    "country":"Vietnam",
    "latitude":21.033333,
    "longitude":105.85000000000002,
    "FIELD7":""
  },
  {
    "iata":"BDL",
    "airport":"Hartford",
    "state":"CT",
    "country":"USA",
    "latitude":41.76371109999999,
    "longitude":-72.68509319999998,
    "FIELD7":""
  },
  {
    "iata":"SGN",
    "airport":"Ho chi minh",
    "state":"Ho Chi Minh",
    "country":"Vietnam",
    "latitude":10.8230989,
    "longitude":106.6296638,
    "FIELD7":""
  },
  {
    "iata":"HKG",
    "airport":"Hong Kong",
    "state":"",
    "country":"",
    "latitude":22.396428,
    "longitude":114.10949700000003,
    "FIELD7":""
  },
  {
    "iata":"HYD",
    "airport":"Hyderabad",
    "state":"Telangana",
    "country":"India",
    "latitude":17.385044,
    "longitude":78.486671,
    "FIELD7":""
  },
  {
    "iata":"IMF",
    "airport":"Imphal",
    "state":"Manipur",
    "country":"India",
    "latitude":24.82,
    "longitude":93.95000000000005,
    "FIELD7":""
  },
  {
    "iata":"IND",
    "airport":"Indianapolis",
    "state":"IN",
    "country":"USA",
    "latitude":39.768403,
    "longitude":-86.15806800000001,
    "FIELD7":""
  },
  {
    "iata":"IDR",
    "airport":"Indore",
    "state":"Madhya Pradesh",
    "country":"India",
    "latitude":22.7195687,
    "longitude":75.85772580000003,
    "FIELD7":""
  },
  {
    "iata":"JAI",
    "airport":"Jaipur",
    "state":"Rajasthan",
    "country":"India",
    "latitude":26.9124336,
    "longitude":75.78727090000007,
    "FIELD7":""
  },
  {
    "iata":"CGK",
    "airport":"Jakarta",
    "state":"Jakarta",
    "country":"Indonesia",
    "latitude":-6.1275118,
    "longitude":106.65368590000003,
    "FIELD7":""
  },
  {
    "iata":"IXJ",
    "airport":"Jammu",
    "state":"",
    "country":"",
    "latitude":32.7266016,
    "longitude":74.85702590000005,
    "FIELD7":""
  },
  {
    "iata":"JED",
    "airport":"Jeddah",
    "state":"",
    "country":"Saudi Arabia",
    "latitude":21.543333,
    "longitude":39.172777999999994,
    "FIELD7":""
  },
  {
    "iata":"JDH",
    "airport":"Jodhpur",
    "state":"Rajasthan",
    "country":"India",
    "latitude":26.2389469,
    "longitude":73.02430939999999,
    "FIELD7":""
  },
  {
    "iata":"JNB",
    "airport":"Johannesburg",
    "state":"",
    "country":"South Africa",
    "latitude":-26.2041028,
    "longitude":28.047305100000017,
    "FIELD7":""
  },
  {
    "iata":"JRH",
    "airport":"Jorhat",
    "state":"Assam",
    "country":"India",
    "latitude":26.75,
    "longitude":94.22000000000003,
    "FIELD7":""
  },
  {
    "iata":"MCI",
    "airport":"Kansas City",
    "state":"MO",
    "country":"USA",
    "latitude":39.0997265,
    "longitude":-94.57856670000001,
    "FIELD7":""
  },
  {
    "iata":"KTM",
    "airport":"Kathmandu",
    "state":"",
    "country":"Nepal",
    "latitude":27.7,
    "longitude":85.33333300000004,
    "FIELD7":""
  },
  {
    "iata":"HJR",
    "airport":"Khajuraho",
    "state":"Madhya Pradesh 471606",
    "country":"India",
    "latitude":24.8318452,
    "longitude":79.91985490000002,
    "FIELD7":""
  },
  {
    "iata":"COK",
    "airport":"Kochi",
    "state":"Kerala",
    "country":"India",
    "latitude":9.9312328,
    "longitude":76.26730410000005,
    "FIELD7":""
  },
  {
    "iata":"CCU",
    "airport":"Kolkata",
    "state":"West Bengal",
    "country":"India",
    "latitude":22.572646,
    "longitude":88.36389499999996,
    "FIELD7":""
  },
  {
    "iata":"CCJ",
    "airport":"Kozhikode",
    "state":"Kerala",
    "country":"India",
    "latitude":11.2587531,
    "longitude":75.78041000000007,
    "FIELD7":""
  },
  {
    "iata":"KUL",
    "airport":"Kuala Lumpur",
    "state":"Federal Territory of Kuala Lumpur",
    "country":"Malaysia",
    "latitude":3.139003,
    "longitude":101.68685499999992,
    "FIELD7":""
  },
  {
    "iata":"KWI",
    "airport":"Kuwait",
    "state":"",
    "country":"Kuwait",
    "latitude":29.31166,
    "longitude":47.48176599999999,
    "FIELD7":""
  },
  {
    "iata":"LAS",
    "airport":"Las Vegas",
    "state":"NV",
    "country":"USA",
    "latitude":36.1699412,
    "longitude":-115.13982959999998,
    "FIELD7":""
  },
  {
    "iata":"IXL",
    "airport":"Leh",
    "state":"",
    "country":"194101",
    "latitude":34.1525864,
    "longitude":77.57705349999992,
    "FIELD7":""
  },
  {
    "iata":"LHR",
    "airport":"London",
    "state":"",
    "country":"UK",
    "latitude":51.5073509,
    "longitude":-0.12775829999998223,
    "FIELD7":""
  },
  {
    "iata":"LAX",
    "airport":"Los Angeles",
    "state":"CA",
    "country":"USA",
    "latitude":34.0522342,
    "longitude":-118.2436849,
    "FIELD7":""
  },
  {
    "iata":"LKO",
    "airport":"Lucknow",
    "state":"Uttar Pradesh",
    "country":"India",
    "latitude":26.8465108,
    "longitude":80.94668320000005,
    "FIELD7":""
  },
  {
    "iata":"LYS",
    "airport":"Lyon",
    "state":"",
    "country":"France",
    "latitude":45.764043,
    "longitude":4.835658999999964,
    "FIELD7":""
  },
  {
    "iata":"MAD",
    "airport":"Madrid",
    "state":"Madrid",
    "country":"Spain",
    "latitude":40.4167754,
    "longitude":-3.7037901999999576,
    "FIELD7":""
  },
  {
    "iata":"IXM",
    "airport":"Madurai",
    "state":"Tamil Nadu",
    "country":"India",
    "latitude":9.9252007,
    "longitude":78.11977539999998,
    "FIELD7":""
  },
  {
    "iata":"MAN",
    "airport":"Manchester",
    "state":"",
    "country":"UK",
    "latitude":53.4807593,
    "longitude":-2.2426305000000184,
    "FIELD7":""
  },
  {
    "iata":"IXE",
    "airport":"Mangalore",
    "state":"Karnataka",
    "country":"India",
    "latitude":12.9141417,
    "longitude":74.85595680000006,
    "FIELD7":""
  },
  {
    "iata":"MRS",
    "airport":"Marseille",
    "state":"",
    "country":"France",
    "latitude":43.296482,
    "longitude":5.369779999999992,
    "FIELD7":""
  },
  {
    "iata":"MEL",
    "airport":"Melbourne",
    "state":"",
    "country":"Australia",
    "latitude":-37.814107,
    "longitude":144.96327999999994,
    "FIELD7":""
  },
  {
    "iata":"MXP",
    "airport":"Milan",
    "state":"",
    "country":"Italy",
    "latitude":45.4654219,
    "longitude":9.18592430000001,
    "FIELD7":""
  },
  {
    "iata":"MSP",
    "airport":"Minneapolis",
    "state":"MN",
    "country":"USA",
    "latitude":44.983334,
    "longitude":-93.26666999999998,
    "FIELD7":""
  },
  {
    "iata":"YUL",
    "airport":"Montreal",
    "state":"QC",
    "country":"Canada",
    "latitude":45.5086699,
    "longitude":-73.55399249999999,
    "FIELD7":""
  },
  {
    "iata":"BOM",
    "airport":"Mumbai",
    "state":"Maharashtra",
    "country":"India",
    "latitude":19.0759837,
    "longitude":72.87765590000004,
    "FIELD7":""
  },
  {
    "iata":"MUC",
    "airport":"Munich",
    "state":"",
    "country":"Germany",
    "latitude":48.1351253,
    "longitude":11.581980599999952,
    "FIELD7":""
  },
  {
    "iata":"MCT",
    "airport":"Muscat",
    "state":"",
    "country":"Oman",
    "latitude":23.61,
    "longitude":58.539999999999964,
    "FIELD7":""
  },
  {
    "iata":"NAG",
    "airport":"Nagpur",
    "state":"Maharashtra",
    "country":"India",
    "latitude":21.1458004,
    "longitude":79.08815460000005,
    "FIELD7":""
  },
  {
    "iata":"NBO",
    "airport":"Nairobi",
    "state":"",
    "country":"Kenya",
    "latitude":-1.2920659,
    "longitude":36.82194619999996,
    "FIELD7":""
  },
  {
    "iata":"NAP",
    "airport":"Naples",
    "state":"FL",
    "country":"USA",
    "latitude":26.1420358,
    "longitude":-81.7948103,
    "FIELD7":""
  },
  {
    "iata":"MSY",
    "airport":"New Orleans",
    "state":"LA",
    "country":"USA",
    "latitude":29.95106579999999,
    "longitude":-90.0715323,
    "FIELD7":""
  },
  {
    "iata":"JFK",
    "airport":"New York",
    "state":"NY",
    "country":"USA",
    "latitude":40.7127837,
    "longitude":-74.00594130000002,
    "FIELD7":""
  },
  {
    "iata":"EWR",
    "airport":"Newark",
    "state":"NJ",
    "country":"USA",
    "latitude":40.735657,
    "longitude":-74.1723667,
    "FIELD7":""
  },
  {
    "iata":"NCL",
    "airport":"Newcastle",
    "state":"Tyne and Wear",
    "country":"UK",
    "latitude":54.978252,
    "longitude":-1.6177800000000389,
    "FIELD7":""
  },
  {
    "iata":"NCE",
    "airport":"Nice",
    "state":"",
    "country":"France",
    "latitude":43.7101728,
    "longitude":7.261953199999994,
    "FIELD7":""
  },
  {
    "iata":"OKC",
    "airport":"Oklahoma City",
    "state":"OK",
    "country":"USA",
    "latitude":35.4675602,
    "longitude":-97.51642759999999,
    "FIELD7":""
  },
  {
    "iata":"KIX",
    "airport":"Osaka Kansai",
    "state":"Osaka Prefecture",
    "country":"Japan",
    "latitude":34.41,
    "longitude":135.3,
    "FIELD7":""
  },
  {
    "iata":"OSL",
    "airport":"Oslo",
    "state":"",
    "country":"Norway",
    "latitude":59.9138688,
    "longitude":10.752245399999993,
    "FIELD7":""
  },
  {
    "iata":"YOW",
    "airport":"Ottawa",
    "state":"ON",
    "country":"Canada",
    "latitude":45.4215296,
    "longitude":-75.69719309999999,
    "FIELD7":""
  },
  {
    "iata":"XPG",
    "airport":"Paris Nord",
    "state":"",
    "country":"France",
    "latitude":48.856614,
    "longitude":2.3522219000000177,
    "FIELD7":""
  },
  {
    "iata":"CDG",
    "airport":"Paris Charles de Gaulle",
    "state":"Roissy-en-France",
    "country":"France",
    "latitude":49,
    "longitude":2.32,
    "FIELD7":""
  },
  {
    "iata":"PAT",
    "airport":"Patna",
    "state":"Bihar",
    "country":"India",
    "latitude":25.611,
    "longitude":85.144,
    "FIELD7":""
  },
  {
    "iata":"PHX",
    "airport":"Phoenix",
    "state":"AZ",
    "country":"USA",
    "latitude":33.4483771,
    "longitude":-112.07403729999999,
    "FIELD7":""
  },
  {
    "iata":"PIT",
    "airport":"Pittsburgh",
    "state":"PA",
    "country":"USA",
    "latitude":40.44062479999999,
    "longitude":-79.99588640000002,
    "FIELD7":""
  },
  {
    "iata":"PBD",
    "airport":"Porbandar",
    "state":"Gujarat",
    "country":"India",
    "latitude":21.6417069,
    "longitude":69.62926540000001,
    "FIELD7":""
  },
  {
    "iata":"IXZ",
    "airport":"Port Blair",
    "state":"Andaman and Nicobar Islands",
    "country":"India",
    "latitude":11.6233774,
    "longitude":92.72648279999999,
    "FIELD7":""
  },
  {
    "iata":"PDX",
    "airport":"Portland",
    "state":"OR",
    "country":"USA",
    "latitude":45.5234515,
    "longitude":-122.6762071,
    "FIELD7":""
  },
  {
    "iata":"PRG",
    "airport":"Prague",
    "state":"",
    "country":"Czech Republic",
    "latitude":50.0755381,
    "longitude":14.43780049999998,
    "FIELD7":""
  },
  {
    "iata":"PNQ",
    "airport":"Pune",
    "state":"Maharashtra",
    "country":"India",
    "latitude":18.5204303,
    "longitude":73.85674369999992,
    "FIELD7":""
  },
  {
    "iata":"RPR",
    "airport":"Raipur",
    "state":"Chhattisgarh",
    "country":"India",
    "latitude":21.2513844,
    "longitude":81.6296413,
    "FIELD7":""
  },
  {
    "iata":"RJA",
    "airport":"Rajahmundry",
    "state":"Andhra Pradesh",
    "country":"India",
    "latitude":17.0005383,
    "longitude":81.80403449999994,
    "FIELD7":""
  },
  {
    "iata":"RAJ",
    "airport":"Rajkot",
    "state":"Gujarat",
    "country":"India",
    "latitude":22.3038945,
    "longitude":70.80215989999999,
    "FIELD7":""
  },
  {
    "iata":"RDU",
    "airport":"Raleigh Durham",
    "state":"NC",
    "country":"USA",
    "latitude":35.7795897,
    "longitude":-78.63817870000003,
    "FIELD7":""
  },
  {
    "iata":"IXR",
    "airport":"Ranchi",
    "state":"Jharkhand",
    "country":"India",
    "latitude":23.3440997,
    "longitude":85.30956200000003,
    "FIELD7":""
  },
  {
    "iata":"RIC",
    "airport":"Richmond",
    "state":"VA",
    "country":"USA",
    "latitude":37.5407246,
    "longitude":-77.4360481,
    "FIELD7":""
  },
  {
    "iata":"RUH",
    "airport":"Riyadh",
    "state":"",
    "country":"Saudi Arabia",
    "latitude":24.633333,
    "longitude":46.71666700000003,
    "FIELD7":""
  },
  {
    "iata":"FCO",
    "airport":"Rome",
    "state":"Fiumicino",
    "country":"Italy",
    "latitude":41.8723889,
    "longitude":12.48018019999995,
    "FIELD7":""
  },
  {
    "iata":"SMF",
    "airport":"Sacramento",
    "state":"CA",
    "country":"USA",
    "latitude":38.5815719,
    "longitude":-121.49439960000001,
    "FIELD7":""
  },
  {
    "iata":"SAT",
    "airport":"San Antonio",
    "state":"TX",
    "country":"USA",
    "latitude":29.4241219,
    "longitude":-98.49362819999999,
    "FIELD7":""
  },
  {
    "iata":"SAN",
    "airport":"San Diego",
    "state":"CA",
    "country":"USA",
    "latitude":32.715738,
    "longitude":-117.16108380000003,
    "FIELD7":""
  },
  {
    "iata":"SFO",
    "airport":"San Francisco",
    "state":"CA",
    "country":"USA",
    "latitude":37.7749295,
    "longitude":-122.41941550000001,
    "FIELD7":""
  },
  {
    "iata":"SHJ",
    "airport":"Sharjah",
    "state":"Sharjah",
    "country":"United Arab Emirates",
    "latitude":25.3575,
    "longitude":55.39083299999993,
    "FIELD7":""
  },
  {
    "iata":"IXS",
    "airport":"Silchar",
    "state":"Assam",
    "country":"India",
    "latitude":24.82,
    "longitude":92.79999999999995,
    "FIELD7":""
  },
  {
    "iata":"SIN",
    "airport":"Singapore",
    "state":"",
    "country":"",
    "latitude":1.352083,
    "longitude":103.81983600000001,
    "FIELD7":""
  },
  {
    "iata":"SXR",
    "airport":"Srinagar",
    "state":"",
    "country":"",
    "latitude":34.0836581,
    "longitude":74.79736809999997,
    "FIELD7":""
  },
  {
    "iata":"STL",
    "airport":"St Louis",
    "state":"MO",
    "country":"USA",
    "latitude":38.6270025,
    "longitude":-90.1994042,
    "FIELD7":""
  },
  {
    "iata":"ARN",
    "airport":"Stockholm Arlanda",
    "state":"Stockholm-Arlanda",
    "country":"Sweden",
    "latitude":59.6497622,
    "longitude":17.923780699999952,
    "FIELD7":""
  },
  {
    "iata":"STR",
    "airport":"Stuttgart",
    "state":"",
    "country":"Germany",
    "latitude":48.7754181,
    "longitude":9.181758800000011,
    "FIELD7":""
  },
  {
    "iata":"SYD",
    "airport":"Sydney",
    "state":"",
    "country":"Australia",
    "latitude":-33.8674869,
    "longitude":151.20699020000006,
    "FIELD7":""
  },
  {
    "iata":"TPA",
    "airport":"Tampa",
    "state":"FL",
    "country":"USA",
    "latitude":27.950575,
    "longitude":-82.45717760000002,
    "FIELD7":""
  },
  {
    "iata":"TRV",
    "airport":"Thiruvananthapuram",
    "state":"Kerala",
    "country":"India",
    "latitude":8.5241391,
    "longitude":76.93663760000004,
    "FIELD7":""
  },
  {
    "iata":"TRZ",
    "airport":"Tiruchirapally",
    "state":"Tamil Nadu",
    "country":"India",
    "latitude":10.7904833,
    "longitude":78.70467250000002,
    "FIELD7":""
  },
  {
    "iata":"TYO",
    "airport":"Tokyo",
    "state":"Narita",
    "country":"Japan",
    "latitude":35.6894875,
    "longitude":139.69170639999993,
    "FIELD7":""
  },
  {
    "iata":"YYZ",
    "airport":"Toronto",
    "state":"ON",
    "country":"Canada",
    "latitude":43.653226,
    "longitude":-79.38318429999998,
    "FIELD7":""
  },
  {
    "iata":"TLS",
    "airport":"Toulouse",
    "state":"",
    "country":"France",
    "latitude":43.604652,
    "longitude":1.4442090000000007,
    "FIELD7":""
  },
  {
    "iata":"TUS",
    "airport":"Tucson",
    "state":"AZ",
    "country":"USA",
    "latitude":32.2217429,
    "longitude":-110.92647899999997,
    "FIELD7":""
  },
  {
    "iata":"TRN",
    "airport":"Turin",
    "state":"",
    "country":"Italy",
    "latitude":45.070312,
    "longitude":7.686856499999976,
    "FIELD7":""
  },
  {
    "iata":"UDR",
    "airport":"Udaipur",
    "state":"Rajasthan",
    "country":"India",
    "latitude":24.58,
    "longitude":73.68000000000006,
    "FIELD7":""
  },
  {
    "iata":"BDQ",
    "airport":"Vadodara",
    "state":"Gujarat",
    "country":"India",
    "latitude":22.3071588,
    "longitude":73.18121870000004,
    "FIELD7":""
  },
  {
    "iata":"YVR",
    "airport":"Vancouver",
    "state":"BC",
    "country":"Canada",
    "latitude":49.261226,
    "longitude":-123.1139268,
    "FIELD7":""
  },
  {
    "iata":"VNS",
    "airport":"Varanasi",
    "state":"Uttar Pradesh",
    "country":"India",
    "latitude":25.3176452,
    "longitude":82.97391440000001,
    "FIELD7":""
  },
  {
    "iata":"VCE",
    "airport":"Venice",
    "state":"",
    "country":"Italy",
    "latitude":45.4408474,
    "longitude":12.31551509999997,
    "FIELD7":""
  },
  {
    "iata":"VIE",
    "airport":"Vienna",
    "state":"",
    "country":"Austria",
    "latitude":48.2081743,
    "longitude":16.37381890000006,
    "FIELD7":""
  },
  {
    "iata":"IAD",
    "airport":"Washington Dulles",
    "state":"VA",
    "country":"USA",
    "latitude":38.9531162,
    "longitude":-77.45653879999998,
    "FIELD7":""
  },
  {
    "iata":"ZRH",
    "airport":"Zurich",
    "state":"",
    "country":"Switzerland",
    "latitude":47.3686498,
    "longitude":8.539182500000038,
    "FIELD7":""
  }
]
